[
  {
    "id": "line1",
    "name": "Line 1",
    "color": "#E21D38",
    "note": "OSM relation 2336457 trimmed to the Xiaoshizi to Daxuecheng core corridor.",
    "path": [
      [
        29.561832,
        106.579144
      ],
      [
        29.556457,
        106.567839
      ],
      [
        29.556986,
        106.559202
      ],
      [
        29.555902,
        106.544612
      ],
      [
        29.550849,
        106.529478
      ],
      [
        29.543439,
        106.515388
      ],
      [
        29.541005,
        106.504348
      ],
      [
        29.53829,
        106.494074
      ],
      [
        29.535588,
        106.481
      ],
      [
        29.538819,
        106.46579
      ],
      [
        29.547578,
        106.46439
      ],
      [
        29.556051,
        106.464412
      ],
      [
        29.559258,
        106.456485
      ],
      [
        29.564396,
        106.446468
      ],
      [
        29.570077,
        106.44145
      ],
      [
        29.579287,
        106.442464
      ],
      [
        29.591962,
        106.440349
      ],
      [
        29.608289,
        106.440471
      ],
      [
        29.612852,
        106.377462
      ],
      [
        29.61225,
        106.35898
      ],
      [
        29.610064,
        106.324643
      ],
      [
        29.610037,
        106.305117
      ]
    ],
    "stations": [
      {
        "name": "Xiaoshizi",
        "lat": 29.561832,
        "lng": 106.579144
      },
      {
        "name": "Jiaochangkou",
        "lat": 29.556457,
        "lng": 106.567839
      },
      {
        "name": "Qixinggang",
        "lat": 29.556986,
        "lng": 106.559202
      },
      {
        "name": "Lianglukou",
        "lat": 29.555902,
        "lng": 106.544612
      },
      {
        "name": "Eling",
        "lat": 29.550849,
        "lng": 106.529478
      },
      {
        "name": "Daping",
        "lat": 29.543439,
        "lng": 106.515388
      },
      {
        "name": "Shiyoulu",
        "lat": 29.541005,
        "lng": 106.504348
      },
      {
        "name": "Xietaizi",
        "lat": 29.53829,
        "lng": 106.494074
      },
      {
        "name": "Shiqiaopu",
        "lat": 29.535588,
        "lng": 106.481
      },
      {
        "name": "Gaomiaocun",
        "lat": 29.538819,
        "lng": 106.46579
      },
      {
        "name": "Majiayan",
        "lat": 29.547578,
        "lng": 106.46439
      },
      {
        "name": "Xialongkan",
        "lat": 29.556051,
        "lng": 106.464412
      },
      {
        "name": "Shapingba",
        "lat": 29.559258,
        "lng": 106.456485
      },
      {
        "name": "Yanggongqiao",
        "lat": 29.564396,
        "lng": 106.446468
      },
      {
        "name": "Lieshimu",
        "lat": 29.570077,
        "lng": 106.44145
      },
      {
        "name": "Ciqikou",
        "lat": 29.579287,
        "lng": 106.442464
      },
      {
        "name": "Shijingpo",
        "lat": 29.591962,
        "lng": 106.440349
      },
      {
        "name": "Shuangbei",
        "lat": 29.608289,
        "lng": 106.440471
      },
      {
        "name": "Laijiaqiao",
        "lat": 29.612852,
        "lng": 106.377462
      },
      {
        "name": "Weidianyuan",
        "lat": 29.61225,
        "lng": 106.35898
      },
      {
        "name": "Chenjiaqiao",
        "lat": 29.610064,
        "lng": 106.324643
      },
      {
        "name": "Daxuecheng",
        "lat": 29.610037,
        "lng": 106.305117
      }
    ]
  },
  {
    "id": "line2",
    "name": "Line 2",
    "color": "#1E3A8A",
    "note": "OSM relation 2353578 for the Jiaochangkou to Yudong monorail corridor.",
    "path": [
      [
        29.556736,
        106.570826
      ],
      [
        29.561154,
        106.57122
      ],
      [
        29.566152,
        106.561234
      ],
      [
        29.568896,
        106.554821
      ],
      [
        29.569264,
        106.546428
      ],
      [
        29.563485,
        106.538832
      ],
      [
        29.555678,
        106.5339
      ],
      [
        29.55212,
        106.527737
      ],
      [
        29.54435,
        106.515302
      ],
      [
        29.531583,
        106.509927
      ],
      [
        29.52193,
        106.513781
      ],
      [
        29.510705,
        106.510135
      ],
      [
        29.502817,
        106.505572
      ],
      [
        29.502379,
        106.495315
      ],
      [
        29.498778,
        106.484925
      ],
      [
        29.491454,
        106.48108
      ],
      [
        29.484456,
        106.474292
      ],
      [
        29.474587,
        106.472398
      ],
      [
        29.469303,
        106.46821
      ],
      [
        29.452542,
        106.470792
      ],
      [
        29.440524,
        106.471517
      ],
      [
        29.430253,
        106.478748
      ],
      [
        29.417418,
        106.487968
      ],
      [
        29.386935,
        106.497224
      ],
      [
        29.378807,
        106.502022
      ]
    ],
    "stations": [
      {
        "name": "Jiaochangkou",
        "lat": 29.556736,
        "lng": 106.570826
      },
      {
        "name": "Linjiangmen",
        "lat": 29.561154,
        "lng": 106.57122
      },
      {
        "name": "Huanghuayuan",
        "lat": 29.566152,
        "lng": 106.561234
      },
      {
        "name": "Daxigou",
        "lat": 29.568896,
        "lng": 106.554821
      },
      {
        "name": "Zengjiayan",
        "lat": 29.569264,
        "lng": 106.546428
      },
      {
        "name": "Niujiaotuo",
        "lat": 29.563485,
        "lng": 106.538832
      },
      {
        "name": "Liziba",
        "lat": 29.555678,
        "lng": 106.5339
      },
      {
        "name": "Fotuguan",
        "lat": 29.55212,
        "lng": 106.527737
      },
      {
        "name": "Daping",
        "lat": 29.54435,
        "lng": 106.515302
      },
      {
        "name": "Yuanjiagang",
        "lat": 29.531583,
        "lng": 106.509927
      },
      {
        "name": "Xiejiawan",
        "lat": 29.52193,
        "lng": 106.513781
      },
      {
        "name": "Yangjiaping",
        "lat": 29.510705,
        "lng": 106.510135
      },
      {
        "name": "Zoo",
        "lat": 29.502817,
        "lng": 106.505572
      },
      {
        "name": "Dayancun",
        "lat": 29.502379,
        "lng": 106.495315
      },
      {
        "name": "Mawangchang",
        "lat": 29.498778,
        "lng": 106.484925
      },
      {
        "name": "Ping'an",
        "lat": 29.491454,
        "lng": 106.48108
      },
      {
        "name": "Dadukou",
        "lat": 29.484456,
        "lng": 106.474292
      },
      {
        "name": "Xinshancun",
        "lat": 29.474587,
        "lng": 106.472398
      },
      {
        "name": "Tiantangbao",
        "lat": 29.469303,
        "lng": 106.46821
      },
      {
        "name": "Jianqiao",
        "lat": 29.452542,
        "lng": 106.470792
      },
      {
        "name": "Jinjiawan",
        "lat": 29.440524,
        "lng": 106.471517
      },
      {
        "name": "Liujiaba",
        "lat": 29.430253,
        "lng": 106.478748
      },
      {
        "name": "Baijusi",
        "lat": 29.417418,
        "lng": 106.487968
      },
      {
        "name": "Dajiang",
        "lat": 29.386935,
        "lng": 106.497224
      },
      {
        "name": "Yudong",
        "lat": 29.378807,
        "lng": 106.502022
      }
    ]
  },
  {
    "id": "line3",
    "name": "Line 3",
    "color": "#059669",
    "note": "OSM relation 2341149 for the Yudong to Jiangbei Airport T2 monorail corridor.",
    "path": [
      [
        29.378642,
        106.502019
      ],
      [
        29.37838,
        106.520114
      ],
      [
        29.380585,
        106.53547
      ],
      [
        29.400907,
        106.539346
      ],
      [
        29.415761,
        106.539921
      ],
      [
        29.435071,
        106.54661
      ],
      [
        29.451504,
        106.550878
      ],
      [
        29.461364,
        106.555453
      ],
      [
        29.46972,
        106.558935
      ],
      [
        29.481002,
        106.562212
      ],
      [
        29.491426,
        106.569128
      ],
      [
        29.500534,
        106.56968
      ],
      [
        29.510164,
        106.570176
      ],
      [
        29.519453,
        106.572545
      ],
      [
        29.529114,
        106.566051
      ],
      [
        29.534535,
        106.559602
      ],
      [
        29.540001,
        106.547799
      ],
      [
        29.555522,
        106.545632
      ],
      [
        29.561895,
        106.538793
      ],
      [
        29.56671,
        106.533506
      ],
      [
        29.576109,
        106.528923
      ],
      [
        29.588023,
        106.522559
      ],
      [
        29.598351,
        106.518303
      ],
      [
        29.602198,
        106.526262
      ],
      [
        29.601972,
        106.536916
      ],
      [
        29.604089,
        106.545443
      ],
      [
        29.609786,
        106.545576
      ],
      [
        29.619674,
        106.546037
      ],
      [
        29.631237,
        106.551509
      ],
      [
        29.638189,
        106.566986
      ],
      [
        29.646176,
        106.563738
      ],
      [
        29.664163,
        106.556526
      ],
      [
        29.677429,
        106.560089
      ],
      [
        29.688676,
        106.569019
      ],
      [
        29.690355,
        106.585038
      ],
      [
        29.693191,
        106.602153
      ],
      [
        29.700762,
        106.615183
      ],
      [
        29.713884,
        106.628948
      ],
      [
        29.721383,
        106.635151
      ]
    ],
    "stations": [
      {
        "name": "Yudong",
        "lat": 29.378642,
        "lng": 106.502019
      },
      {
        "name": "Jinzhu",
        "lat": 29.37838,
        "lng": 106.520114
      },
      {
        "name": "Yuhulu",
        "lat": 29.380585,
        "lng": 106.53547
      },
      {
        "name": "Xuetangwan",
        "lat": 29.400907,
        "lng": 106.539346
      },
      {
        "name": "Dashancun",
        "lat": 29.415761,
        "lng": 106.539921
      },
      {
        "name": "Huaxi",
        "lat": 29.435071,
        "lng": 106.54661
      },
      {
        "name": "Chalukou",
        "lat": 29.451504,
        "lng": 106.550878
      },
      {
        "name": "Jiugongli",
        "lat": 29.461364,
        "lng": 106.555453
      },
      {
        "name": "Qilong",
        "lat": 29.46972,
        "lng": 106.558935
      },
      {
        "name": "Bagongli",
        "lat": 29.481002,
        "lng": 106.562212
      },
      {
        "name": "Chongqing Jiaotong University",
        "lat": 29.491426,
        "lng": 106.569128
      },
      {
        "name": "Liugongli",
        "lat": 29.500534,
        "lng": 106.56968
      },
      {
        "name": "Chongqing University of Technology and Business",
        "lat": 29.510164,
        "lng": 106.570176
      },
      {
        "name": "Sigongli",
        "lat": 29.519453,
        "lng": 106.572545
      },
      {
        "name": "Nanping",
        "lat": 29.529114,
        "lng": 106.566051
      },
      {
        "name": "Gongmao",
        "lat": 29.534535,
        "lng": 106.559602
      },
      {
        "name": "Tongyuanju",
        "lat": 29.540001,
        "lng": 106.547799
      },
      {
        "name": "Lianglukou",
        "lat": 29.555522,
        "lng": 106.545632
      },
      {
        "name": "Niujiaotuo",
        "lat": 29.561895,
        "lng": 106.538793
      },
      {
        "name": "Huaxinjie",
        "lat": 29.56671,
        "lng": 106.533506
      },
      {
        "name": "Guanyinqiao",
        "lat": 29.576109,
        "lng": 106.528923
      },
      {
        "name": "Hongqihegou",
        "lat": 29.588023,
        "lng": 106.522559
      },
      {
        "name": "Jiazhou Road",
        "lat": 29.598351,
        "lng": 106.518303
      },
      {
        "name": "Zhengjiayuanzi",
        "lat": 29.602198,
        "lng": 106.526262
      },
      {
        "name": "Tangjiayuanzi",
        "lat": 29.601972,
        "lng": 106.536916
      },
      {
        "name": "Shiziping",
        "lat": 29.604089,
        "lng": 106.545443
      },
      {
        "name": "Chongqing North Station South Square",
        "lat": 29.609786,
        "lng": 106.545576
      },
      {
        "name": "Longtousi",
        "lat": 29.619674,
        "lng": 106.546037
      },
      {
        "name": "Tongjiayuanzi",
        "lat": 29.631237,
        "lng": 106.551509
      },
      {
        "name": "Jinyu",
        "lat": 29.638189,
        "lng": 106.566986
      },
      {
        "name": "Jintonglu",
        "lat": 29.646176,
        "lng": 106.563738
      },
      {
        "name": "Yuanyang",
        "lat": 29.664163,
        "lng": 106.556526
      },
      {
        "name": "The EXPO Garden",
        "lat": 29.677429,
        "lng": 106.560089
      },
      {
        "name": "Cuiyun",
        "lat": 29.688676,
        "lng": 106.569019
      },
      {
        "name": "Changfulu",
        "lat": 29.690355,
        "lng": 106.585038
      },
      {
        "name": "Huixing",
        "lat": 29.693191,
        "lng": 106.602153
      },
      {
        "name": "Shuanglong",
        "lat": 29.700762,
        "lng": 106.615183
      },
      {
        "name": "Bijin",
        "lat": 29.713884,
        "lng": 106.628948
      },
      {
        "name": "Jiangbei Airport T2",
        "lat": 29.721383,
        "lng": 106.635151
      }
    ]
  },
  {
    "id": "line4",
    "name": "Line 4",
    "color": "#F59E0B",
    "note": "OSM relation 9171927 trimmed to the Min'an Avenue to Huangling operational segment.",
    "path": [
      [
        29.611383,
        106.524663
      ],
      [
        29.614919,
        106.547434
      ],
      [
        29.611076,
        106.570011
      ],
      [
        29.619608,
        106.579821
      ],
      [
        29.624654,
        106.602355
      ],
      [
        29.627718,
        106.617472
      ],
      [
        29.622677,
        106.628452
      ],
      [
        29.608706,
        106.637828
      ],
      [
        29.608374,
        106.655681
      ],
      [
        29.616646,
        106.665508
      ],
      [
        29.603357,
        106.712258
      ],
      [
        29.612435,
        106.73486
      ],
      [
        29.626133,
        106.758494
      ],
      [
        29.629763,
        106.771925
      ],
      [
        29.641438,
        106.795723
      ],
      [
        29.658758,
        106.79631
      ],
      [
        29.670402,
        106.793509
      ],
      [
        29.692767,
        106.790833
      ],
      [
        29.704275,
        106.797967
      ],
      [
        29.71389,
        106.798835
      ],
      [
        29.730676,
        106.799415
      ],
      [
        29.744677,
        106.811296
      ],
      [
        29.762338,
        106.829721
      ],
      [
        29.774804,
        106.837409
      ]
    ],
    "stations": [
      {
        "name": "Min'an Avenue",
        "lat": 29.611383,
        "lng": 106.524663
      },
      {
        "name": "Chongqing North Station North Square",
        "lat": 29.614919,
        "lng": 106.547434
      },
      {
        "name": "Toutang",
        "lat": 29.611076,
        "lng": 106.570011
      },
      {
        "name": "Baoshuigang",
        "lat": 29.619608,
        "lng": 106.579821
      },
      {
        "name": "Cuntan",
        "lat": 29.624654,
        "lng": 106.602355
      },
      {
        "name": "Heishizi",
        "lat": 29.627718,
        "lng": 106.617472
      },
      {
        "name": "Gangcheng",
        "lat": 29.622677,
        "lng": 106.628452
      },
      {
        "name": "Taipingchong",
        "lat": 29.608706,
        "lng": 106.637828
      },
      {
        "name": "Tangjiatuo",
        "lat": 29.608374,
        "lng": 106.655681
      },
      {
        "name": "Tieshanping",
        "lat": 29.616646,
        "lng": 106.665508
      },
      {
        "name": "Luqi",
        "lat": 29.603357,
        "lng": 106.712258
      },
      {
        "name": "Guoyuan Logistics Hub",
        "lat": 29.612435,
        "lng": 106.73486
      },
      {
        "name": "Yuzui",
        "lat": 29.626133,
        "lng": 106.758494
      },
      {
        "name": "Yanping",
        "lat": 29.629763,
        "lng": 106.771925
      },
      {
        "name": "Shiheqing",
        "lat": 29.641438,
        "lng": 106.795723
      },
      {
        "name": "Fusheng",
        "lat": 29.658758,
        "lng": 106.79631
      },
      {
        "name": "Sanbanxi",
        "lat": 29.670402,
        "lng": 106.793509
      },
      {
        "name": "Longyi Ave.",
        "lat": 29.692767,
        "lng": 106.790833
      },
      {
        "name": "Longxing",
        "lat": 29.704275,
        "lng": 106.797967
      },
      {
        "name": "Gaoshita",
        "lat": 29.71389,
        "lng": 106.798835
      },
      {
        "name": "Pufu",
        "lat": 29.730676,
        "lng": 106.799415
      },
      {
        "name": "Tongzilin",
        "lat": 29.744677,
        "lng": 106.811296
      },
      {
        "name": "Shichuan",
        "lat": 29.762338,
        "lng": 106.829721
      },
      {
        "name": "Huangling",
        "lat": 29.774804,
        "lng": 106.837409
      }
    ]
  },
  {
    "id": "line5",
    "name": "Line 5",
    "color": "#8B5CF6",
    "note": "OSM relation 7913722 for the current Yuegangbeilu to Tiaodeng route; official product copy labels the core line as Tuanbaocun to Yuelai.",
    "path": [
      [
        29.755941,
        106.565735
      ],
      [
        29.747492,
        106.565517
      ],
      [
        29.73668,
        106.566978
      ],
      [
        29.725293,
        106.56864
      ],
      [
        29.713874,
        106.56727
      ],
      [
        29.705747,
        106.565346
      ],
      [
        29.69697,
        106.565497
      ],
      [
        29.678555,
        106.556705
      ],
      [
        29.669763,
        106.547257
      ],
      [
        29.662555,
        106.534669
      ],
      [
        29.651649,
        106.526364
      ],
      [
        29.632451,
        106.529583
      ],
      [
        29.626055,
        106.518463
      ],
      [
        29.619287,
        106.504513
      ],
      [
        29.601303,
        106.494911
      ],
      [
        29.592374,
        106.494802
      ],
      [
        29.57345,
        106.491194
      ],
      [
        29.565739,
        106.490084
      ],
      [
        29.554191,
        106.490618
      ],
      [
        29.541494,
        106.494969
      ],
      [
        29.535424,
        106.481401
      ],
      [
        29.528428,
        106.473783
      ],
      [
        29.523246,
        106.46569
      ],
      [
        29.516333,
        106.450141
      ],
      [
        29.502736,
        106.435282
      ],
      [
        29.496738,
        106.440883
      ],
      [
        29.482862,
        106.449365
      ],
      [
        29.47561,
        106.446363
      ],
      [
        29.462031,
        106.441995
      ],
      [
        29.44516,
        106.438038
      ],
      [
        29.431714,
        106.436416
      ],
      [
        29.410854,
        106.433551
      ]
    ],
    "stations": [
      {
        "name": "Yuegangbeilu",
        "lat": 29.755941,
        "lng": 106.565735
      },
      {
        "name": "Yuegang Avenue",
        "lat": 29.747492,
        "lng": 106.565517
      },
      {
        "name": "Chunxuan Avenue",
        "lat": 29.73668,
        "lng": 106.566978
      },
      {
        "name": "Central Park West",
        "lat": 29.725293,
        "lng": 106.56864
      },
      {
        "name": "Lujiagou",
        "lat": 29.713874,
        "lng": 106.56727
      },
      {
        "name": "Ganyue Avenue",
        "lat": 29.705747,
        "lng": 106.565346
      },
      {
        "name": "Yuhegou",
        "lat": 29.69697,
        "lng": 106.565497
      },
      {
        "name": "The EXPO Garden Center",
        "lat": 29.678555,
        "lng": 106.556705
      },
      {
        "name": "Danhe",
        "lat": 29.669763,
        "lng": 106.547257
      },
      {
        "name": "Huxiajie",
        "lat": 29.662555,
        "lng": 106.534669
      },
      {
        "name": "Chongguang",
        "lat": 29.651649,
        "lng": 106.526364
      },
      {
        "name": "Hemulu",
        "lat": 29.632451,
        "lng": 106.529583
      },
      {
        "name": "Renhe",
        "lat": 29.626055,
        "lng": 106.518463
      },
      {
        "name": "Xingfu Square",
        "lat": 29.619287,
        "lng": 106.504513
      },
      {
        "name": "Ranjiaba",
        "lat": 29.601303,
        "lng": 106.494911
      },
      {
        "name": "Dalongshan",
        "lat": 29.592374,
        "lng": 106.494802
      },
      {
        "name": "Dashiba",
        "lat": 29.57345,
        "lng": 106.491194
      },
      {
        "name": "Zhongshutuo",
        "lat": 29.565739,
        "lng": 106.490084
      },
      {
        "name": "Hongyancun",
        "lat": 29.554191,
        "lng": 106.490618
      },
      {
        "name": "Xietaizi",
        "lat": 29.541494,
        "lng": 106.494969
      },
      {
        "name": "Shiqiaopu",
        "lat": 29.535424,
        "lng": 106.481401
      },
      {
        "name": "Shixinlu",
        "lat": 29.528428,
        "lng": 106.473783
      },
      {
        "name": "Bashan",
        "lat": 29.523246,
        "lng": 106.46569
      },
      {
        "name": "Fengxilu",
        "lat": 29.516333,
        "lng": 106.450141
      },
      {
        "name": "Chongqing West Railway Station",
        "lat": 29.502736,
        "lng": 106.435282
      },
      {
        "name": "Huayan Temple",
        "lat": 29.496738,
        "lng": 106.440883
      },
      {
        "name": "Huachenglu",
        "lat": 29.482862,
        "lng": 106.449365
      },
      {
        "name": "Banshan",
        "lat": 29.47561,
        "lng": 106.446363
      },
      {
        "name": "Zhongliangshan",
        "lat": 29.462031,
        "lng": 106.441995
      },
      {
        "name": "金建路",
        "lat": 29.44516,
        "lng": 106.438038
      },
      {
        "name": "华岩中心",
        "lat": 29.431714,
        "lng": 106.436416
      },
      {
        "name": "Tiaodeng",
        "lat": 29.410854,
        "lng": 106.433551
      }
    ]
  },
  {
    "id": "line6",
    "name": "Line 6",
    "color": "#D97706",
    "note": "OSM relation 2768661 for the Chayuan to Beibei operational route.",
    "path": [
      [
        29.490491,
        106.639227
      ],
      [
        29.500733,
        106.645943
      ],
      [
        29.51365,
        106.654265
      ],
      [
        29.527628,
        106.652003
      ],
      [
        29.55912,
        106.59332
      ],
      [
        29.562972,
        106.579967
      ],
      [
        29.571923,
        106.573532
      ],
      [
        29.578744,
        106.568433
      ],
      [
        29.588158,
        106.561624
      ],
      [
        29.586927,
        106.547256
      ],
      [
        29.591299,
        106.534436
      ],
      [
        29.588071,
        106.522468
      ],
      [
        29.586022,
        106.508981
      ],
      [
        29.59237,
        106.495024
      ],
      [
        29.601302,
        106.495144
      ],
      [
        29.618701,
        106.49559
      ],
      [
        29.63079,
        106.474473
      ],
      [
        29.637507,
        106.475117
      ],
      [
        29.656588,
        106.478976
      ],
      [
        29.669469,
        106.484608
      ],
      [
        29.682257,
        106.488208
      ],
      [
        29.723554,
        106.490462
      ],
      [
        29.738952,
        106.487545
      ],
      [
        29.741836,
        106.469483
      ],
      [
        29.792141,
        106.399924
      ],
      [
        29.805577,
        106.395083
      ],
      [
        29.818615,
        106.419801
      ],
      [
        29.827832,
        106.433742
      ]
    ],
    "stations": [
      {
        "name": "Chayuan",
        "lat": 29.490491,
        "lng": 106.639227
      },
      {
        "name": "Qiujiawan",
        "lat": 29.500733,
        "lng": 106.645943
      },
      {
        "name": "Changshengqiao",
        "lat": 29.51365,
        "lng": 106.654265
      },
      {
        "name": "Liujiaping",
        "lat": 29.527628,
        "lng": 106.652003
      },
      {
        "name": "Shangxinjie",
        "lat": 29.55912,
        "lng": 106.59332
      },
      {
        "name": "Xiaoshizi",
        "lat": 29.562972,
        "lng": 106.579967
      },
      {
        "name": "Grand Theater",
        "lat": 29.571923,
        "lng": 106.573532
      },
      {
        "name": "Jiangbeicheng",
        "lat": 29.578744,
        "lng": 106.568433
      },
      {
        "name": "Wulidian",
        "lat": 29.588158,
        "lng": 106.561624
      },
      {
        "name": "Hongtudi",
        "lat": 29.586927,
        "lng": 106.547256
      },
      {
        "name": "Huangnibang",
        "lat": 29.591299,
        "lng": 106.534436
      },
      {
        "name": "Hongqihegou",
        "lat": 29.588071,
        "lng": 106.522468
      },
      {
        "name": "Huahuiyuan",
        "lat": 29.586022,
        "lng": 106.508981
      },
      {
        "name": "Dalongshan",
        "lat": 29.59237,
        "lng": 106.495024
      },
      {
        "name": "Ranjiaba",
        "lat": 29.601302,
        "lng": 106.495144
      },
      {
        "name": "Guangdianyuan",
        "lat": 29.618701,
        "lng": 106.49559
      },
      {
        "name": "Dazhulin",
        "lat": 29.63079,
        "lng": 106.474473
      },
      {
        "name": "Kangzhuang",
        "lat": 29.637507,
        "lng": 106.475117
      },
      {
        "name": "Jiuquhe",
        "lat": 29.656588,
        "lng": 106.478976
      },
      {
        "name": "Lijia",
        "lat": 29.669469,
        "lng": 106.484608
      },
      {
        "name": "Jinshansi",
        "lat": 29.682257,
        "lng": 106.488208
      },
      {
        "name": "Caojiawan",
        "lat": 29.723554,
        "lng": 106.490462
      },
      {
        "name": "Caijia",
        "lat": 29.738952,
        "lng": 106.487545
      },
      {
        "name": "Xiangjiagang",
        "lat": 29.741836,
        "lng": 106.469483
      },
      {
        "name": "Longfengxi",
        "lat": 29.792141,
        "lng": 106.399924
      },
      {
        "name": "Zhuangyuanbei",
        "lat": 29.805577,
        "lng": 106.395083
      },
      {
        "name": "Southwest University",
        "lat": 29.818615,
        "lng": 106.419801
      },
      {
        "name": "Beibei",
        "lat": 29.827832,
        "lng": 106.433742
      }
    ]
  },
  {
    "id": "line9",
    "name": "Line 9",
    "color": "#DB2777",
    "note": "OSM relation 14004563 trimmed to the Gaotanyan to Xingke Avenue main section.",
    "path": [
      [
        29.541446,
        106.445581
      ],
      [
        29.552374,
        106.44693
      ],
      [
        29.557306,
        106.456447
      ],
      [
        29.555298,
        106.466318
      ],
      [
        29.553704,
        106.476535
      ],
      [
        29.552627,
        106.488909
      ],
      [
        29.553619,
        106.499793
      ],
      [
        29.552758,
        106.514844
      ],
      [
        29.566837,
        106.51749
      ],
      [
        29.57283,
        106.521755
      ],
      [
        29.575805,
        106.53124
      ],
      [
        29.575786,
        106.54791
      ],
      [
        29.575605,
        106.560279
      ],
      [
        29.578746,
        106.568273
      ],
      [
        29.588707,
        106.565158
      ],
      [
        29.597135,
        106.567818
      ],
      [
        29.610913,
        106.570092
      ],
      [
        29.619462,
        106.579968
      ],
      [
        29.627744,
        106.592535
      ],
      [
        29.641621,
        106.593922
      ],
      [
        29.652677,
        106.605763
      ],
      [
        29.664416,
        106.61324
      ],
      [
        29.681048,
        106.605564
      ],
      [
        29.690483,
        106.599769
      ]
    ],
    "stations": [
      {
        "name": "Gaotanyan",
        "lat": 29.541446,
        "lng": 106.445581
      },
      {
        "name": "Tianlilu",
        "lat": 29.552374,
        "lng": 106.44693
      },
      {
        "name": "Shapingba",
        "lat": 29.557306,
        "lng": 106.456447
      },
      {
        "name": "小龙坎",
        "lat": 29.555298,
        "lng": 106.466318
      },
      {
        "name": "Tuwan",
        "lat": 29.553704,
        "lng": 106.476535
      },
      {
        "name": "Hongyancun",
        "lat": 29.552627,
        "lng": 106.488909
      },
      {
        "name": "Fuhualu",
        "lat": 29.553619,
        "lng": 106.499793
      },
      {
        "name": "Hualongqiao",
        "lat": 29.552758,
        "lng": 106.514844
      },
      {
        "name": "Lijiaping",
        "lat": 29.566837,
        "lng": 106.51749
      },
      {
        "name": "Mahuangliang",
        "lat": 29.57283,
        "lng": 106.521755
      },
      {
        "name": "Guanyinqiao",
        "lat": 29.575805,
        "lng": 106.53124
      },
      {
        "name": "Liyuchi",
        "lat": 29.575786,
        "lng": 106.54791
      },
      {
        "name": "Liujiatai",
        "lat": 29.575605,
        "lng": 106.560279
      },
      {
        "name": "Jiangbeicheng",
        "lat": 29.578746,
        "lng": 106.568273
      },
      {
        "name": "Wulidian",
        "lat": 29.588707,
        "lng": 106.565158
      },
      {
        "name": "Gailanxi",
        "lat": 29.597135,
        "lng": 106.567818
      },
      {
        "name": "Toutang",
        "lat": 29.610913,
        "lng": 106.570092
      },
      {
        "name": "Baoshuigang",
        "lat": 29.619462,
        "lng": 106.579968
      },
      {
        "name": "Hejialiang",
        "lat": 29.627744,
        "lng": 106.592535
      },
      {
        "name": "Shipanhe",
        "lat": 29.641621,
        "lng": 106.593922
      },
      {
        "name": "Shangwanlu",
        "lat": 29.652677,
        "lng": 106.605763
      },
      {
        "name": "Qinggangping",
        "lat": 29.664416,
        "lng": 106.61324
      },
      {
        "name": "Baoshenghu",
        "lat": 29.681048,
        "lng": 106.605564
      },
      {
        "name": "Xingke Avenue",
        "lat": 29.690483,
        "lng": 106.599769
      }
    ]
  },
  {
    "id": "line10",
    "name": "Line 10",
    "color": "#0891B2",
    "note": "OSM relation 8300862 trimmed to the Lanhua Road to Chongqing North Station section used in the hub.",
    "path": [
      [
        29.507413,
        106.554046
      ],
      [
        29.518205,
        106.55273
      ],
      [
        29.526025,
        106.55839
      ],
      [
        29.541075,
        106.565565
      ],
      [
        29.558127,
        106.557929
      ],
      [
        29.564381,
        106.552284
      ],
      [
        29.569705,
        106.546336
      ],
      [
        29.576896,
        106.546475
      ],
      [
        29.586886,
        106.547333
      ],
      [
        29.601454,
        106.546974
      ],
      [
        29.609489,
        106.547193
      ]
    ],
    "stations": [
      {
        "name": "Lanhua Road",
        "lat": 29.507413,
        "lng": 106.554046
      },
      {
        "name": "Nanhu",
        "lat": 29.518205,
        "lng": 106.55273
      },
      {
        "name": "Wanshou Road",
        "lat": 29.526025,
        "lng": 106.55839
      },
      {
        "name": "Houbao",
        "lat": 29.541075,
        "lng": 106.565565
      },
      {
        "name": "Qixinggang",
        "lat": 29.558127,
        "lng": 106.557929
      },
      {
        "name": "Chongqing People’s Auditorium",
        "lat": 29.564381,
        "lng": 106.552284
      },
      {
        "name": "Zengjiayan",
        "lat": 29.569705,
        "lng": 106.546336
      },
      {
        "name": "Liyuchi",
        "lat": 29.576896,
        "lng": 106.546475
      },
      {
        "name": "Hongtudi",
        "lat": 29.586886,
        "lng": 106.547333
      },
      {
        "name": "Longtousi Park",
        "lat": 29.601454,
        "lng": 106.546974
      },
      {
        "name": "Chongqing North Station South Square",
        "lat": 29.609489,
        "lng": 106.547193
      }
    ]
  },
  {
    "id": "line18",
    "name": "Line 18",
    "color": "#7C3AED",
    "note": "OSM relation 15749313 reversed into the Fuhua Road to Tiaodeng operational segment.",
    "path": [
      [
        29.553785,
        106.499841
      ],
      [
        29.539559,
        106.49538
      ],
      [
        29.528302,
        106.497216
      ],
      [
        29.518352,
        106.502819
      ],
      [
        29.511304,
        106.511342
      ],
      [
        29.502352,
        106.524175
      ],
      [
        29.498561,
        106.533705
      ],
      [
        29.490869,
        106.539346
      ],
      [
        29.485581,
        106.534605
      ],
      [
        29.471619,
        106.523928
      ],
      [
        29.462989,
        106.516131
      ],
      [
        29.450338,
        106.513428
      ],
      [
        29.435458,
        106.513604
      ],
      [
        29.426863,
        106.500233
      ],
      [
        29.419389,
        106.488682
      ],
      [
        29.418505,
        106.477139
      ],
      [
        29.417748,
        106.455041
      ],
      [
        29.410691,
        106.434743
      ]
    ],
    "stations": [
      {
        "name": "Fuhua Road",
        "lat": 29.553785,
        "lng": 106.499841
      },
      {
        "name": "Xietaizi",
        "lat": 29.539559,
        "lng": 106.49538
      },
      {
        "name": "Olympic Sports Center",
        "lat": 29.528302,
        "lng": 106.497216
      },
      {
        "name": "Shipingqiao",
        "lat": 29.518352,
        "lng": 106.502819
      },
      {
        "name": "Yangjiaping",
        "lat": 29.511304,
        "lng": 106.511342
      },
      {
        "name": "Tanzikou",
        "lat": 29.502352,
        "lng": 106.524175
      },
      {
        "name": "Huangjueping",
        "lat": 29.498561,
        "lng": 106.533705
      },
      {
        "name": "Sichuan Fine Arts Institue",
        "lat": 29.490869,
        "lng": 106.539346
      },
      {
        "name": "Dianchang",
        "lat": 29.485581,
        "lng": 106.534605
      },
      {
        "name": "Lijiatuo Bridge",
        "lat": 29.471619,
        "lng": 106.523928
      },
      {
        "name": "Chongqing University of Technology",
        "lat": 29.462989,
        "lng": 106.516131
      },
      {
        "name": "Huaxi Industrial Park",
        "lat": 29.450338,
        "lng": 106.513428
      },
      {
        "name": "Babin Road Wetland Park",
        "lat": 29.435458,
        "lng": 106.513604
      },
      {
        "name": "Qiezixi",
        "lat": 29.426863,
        "lng": 106.500233
      },
      {
        "name": "Baijusi",
        "lat": 29.419389,
        "lng": 106.488682
      },
      {
        "name": "Funiuxi",
        "lat": 29.418505,
        "lng": 106.477139
      },
      {
        "name": "Jin'aoshan",
        "lat": 29.417748,
        "lng": 106.455041
      },
      {
        "name": "Tiaodeng",
        "lat": 29.410691,
        "lng": 106.434743
      }
    ]
  },
  {
    "id": "loop-line",
    "name": "Loop Line",
    "color": "#6B7280",
    "note": "OSM relation 7662492 for the clockwise Loop Line.",
    "path": [
      [
        29.502719,
        106.435528
      ],
      [
        29.520311,
        106.438513
      ],
      [
        29.526769,
        106.44461
      ],
      [
        29.534794,
        106.451737
      ],
      [
        29.544365,
        106.455015
      ],
      [
        29.558264,
        106.455437
      ],
      [
        29.569958,
        106.459691
      ],
      [
        29.583141,
        106.472049
      ],
      [
        29.592922,
        106.478436
      ],
      [
        29.601192,
        106.483288
      ],
      [
        29.601275,
        106.495054
      ],
      [
        29.606575,
        106.501443
      ],
      [
        29.610349,
        106.508478
      ],
      [
        29.611532,
        106.524612
      ],
      [
        29.609691,
        106.546194
      ],
      [
        29.59812,
        106.555977
      ],
      [
        29.587983,
        106.561666
      ],
      [
        29.588729,
        106.588536
      ],
      [
        29.578988,
        106.596278
      ],
      [
        29.567991,
        106.595632
      ],
      [
        29.55901,
        106.593485
      ],
      [
        29.54954,
        106.590287
      ],
      [
        29.537478,
        106.583343
      ],
      [
        29.529169,
        106.579187
      ],
      [
        29.520907,
        106.573884
      ],
      [
        29.519638,
        106.553526
      ],
      [
        29.521306,
        106.542535
      ],
      [
        29.52303,
        106.51555
      ],
      [
        29.526277,
        106.49818
      ],
      [
        29.526535,
        106.485359
      ],
      [
        29.518524,
        106.467628
      ],
      [
        29.507761,
        106.458177
      ],
      [
        29.498226,
        106.448863
      ],
      [
        29.502719,
        106.435528
      ]
    ],
    "stations": [
      {
        "name": "Chongqing West Railway Station",
        "lat": 29.502719,
        "lng": 106.435528
      },
      {
        "name": "上桥",
        "lat": 29.520311,
        "lng": 106.438513
      },
      {
        "name": "Fengmingshan",
        "lat": 29.526769,
        "lng": 106.44461
      },
      {
        "name": "Chongqing Library",
        "lat": 29.534794,
        "lng": 106.451737
      },
      {
        "name": "Tianxingqiao",
        "lat": 29.544365,
        "lng": 106.455015
      },
      {
        "name": "Shapingba",
        "lat": 29.558264,
        "lng": 106.455437
      },
      {
        "name": "Chongqing University",
        "lat": 29.569958,
        "lng": 106.459691
      },
      {
        "name": "Yudaishan",
        "lat": 29.583141,
        "lng": 106.472049
      },
      {
        "name": "Nanqiaosi",
        "lat": 29.592922,
        "lng": 106.478436
      },
      {
        "name": "Sports Park",
        "lat": 29.601192,
        "lng": 106.483288
      },
      {
        "name": "Ranjiaba",
        "lat": 29.601275,
        "lng": 106.495054
      },
      {
        "name": "Dongbu Park",
        "lat": 29.606575,
        "lng": 106.501443
      },
      {
        "name": "Honghudonglu",
        "lat": 29.610349,
        "lng": 106.508478
      },
      {
        "name": "Min'an Avenue",
        "lat": 29.611532,
        "lng": 106.524612
      },
      {
        "name": "Chongqing North Station South Square",
        "lat": 29.609691,
        "lng": 106.546194
      },
      {
        "name": "Yulu",
        "lat": 29.59812,
        "lng": 106.555977
      },
      {
        "name": "Wulidian",
        "lat": 29.587983,
        "lng": 106.561666
      },
      {
        "name": "Danzishi",
        "lat": 29.588729,
        "lng": 106.588536
      },
      {
        "name": "Tushan",
        "lat": 29.578988,
        "lng": 106.596278
      },
      {
        "name": "Renji",
        "lat": 29.567991,
        "lng": 106.595632
      },
      {
        "name": "Shangxinjie",
        "lat": 29.55901,
        "lng": 106.593485
      },
      {
        "name": "Shanghao",
        "lat": 29.54954,
        "lng": 106.590287
      },
      {
        "name": "Haitangxi",
        "lat": 29.537478,
        "lng": 106.583343
      },
      {
        "name": "Luojiaba",
        "lat": 29.529169,
        "lng": 106.579187
      },
      {
        "name": "Sigongli",
        "lat": 29.520907,
        "lng": 106.573884
      },
      {
        "name": "Nanhu",
        "lat": 29.519638,
        "lng": 106.553526
      },
      {
        "name": "Haixialu",
        "lat": 29.521306,
        "lng": 106.542535
      },
      {
        "name": "Xiejiawan",
        "lat": 29.52303,
        "lng": 106.51555
      },
      {
        "name": "Olympic Sports Center",
        "lat": 29.526277,
        "lng": 106.49818
      },
      {
        "name": "Chenjiaping",
        "lat": 29.526535,
        "lng": 106.485359
      },
      {
        "name": "Caiyunhu",
        "lat": 29.518524,
        "lng": 106.467628
      },
      {
        "name": "Erlang",
        "lat": 29.507761,
        "lng": 106.458177
      },
      {
        "name": "Hualong",
        "lat": 29.498226,
        "lng": 106.448863
      },
      {
        "name": "Chongqing West Railway Station",
        "lat": 29.502719,
        "lng": 106.435528
      }
    ]
  }
]
